[
	{"name":"Barrio El MODELO","location":{"lat":2.4463512,"lng":-76.60763949999999}},
	{"name":"Loma Linda","location":{"lat":2.449012,"lng":-76.6049945}},
	{"name":"Prados Norte","location":{"lat":2.4499268,"lng":-76.6008841}},
	{"name":"La cabaña","location":{"lat":2.4577259,"lng":-76.6065905}},
	{"name":"Santa Clara","location":{"lat":2.4545701,"lng":-76.5996163}},
	{"name":"Champagnat Popayan","location":{"lat":2.4496902,"lng":-76.60604339999999}},
	{"name":"La Playa ","location":{"lat":2.4677964,"lng":-76.5791054}},
	{"name":"Campamento","location":{"lat":2.460395,"lng":-76.5984098}},
	{"name":"PUERTA DE HIERRO POPAYAN","location":{"lat":2.4629667,"lng":-76.5958593}},
	{"name":"Pubenza CATAY","location":{"lat":2.4495824,"lng":-76.6103631}},
	{"name":"Antonio nariño","location":{"lat":2.4570808,"lng":-76.5986796}},
	{"name":"Villa paula","location":{"lat":2.4499782,"lng":-76.610345}},
	{"name":"Campo Bello ","location":{"lat":2.4708991,"lng":-76.61099089999999}},
	{"name":"El Recuerdo","location":{"lat":2.453896599999999,"lng":-76.598496}},
	{"name":"La Villa","location":{"lat":2.4601832,"lng":-76.600016}},
	{"name":"Barrio Belalcazar","location":{"lat":2.4506498,"lng":-76.6047956}},
	{"name":"Bloques de pubenza","location":{"lat":2.4494944,"lng":-76.6067333}},
	{"name":"los Laureles","location":{"lat":2.443954799999999,"lng":-76.6099484}},
	{"name":"Los Rosales, Conjunto Residencial","location":{"lat":2.4473532,"lng":-76.6090353}},
	{"name":"Alcalá","location":{"lat":2.4453745,"lng":-76.60472}},
	{"name":"Puerta del sol","location":{"lat":2.4632957,"lng":-76.5967672}},
	{"name":"Pino pardo","location":{"lat":2.490558699999999,"lng":-76.5620078}},
	{"name":"Balcón del Norte","location":{"lat":2.4755899,"lng":-76.5816366}},
	{"name":"Maria paz","location":{"lat":2.4902011,"lng":-76.56506619999999}},
	{"name":"Zuldemaida","location":{"lat":2.490502,"lng":-76.5788671}},
	{"name":"MORINDA","location":{"lat":2.4898032,"lng":-76.5825323}},
	{"name":"El Tablazo, Popayán.","location":{"lat":2.4757169,"lng":-76.58088649999999}},
	{"name":"Barrio La Florida","location":{"lat":2.4815208,"lng":-76.5707689}},
	{"name":"La Aldea","location":{"lat":2.4894946,"lng":-76.56325489999999}},
	{"name":"La Primavera","location":{"lat":2.4854242,"lng":-76.5630479}},
	{"name":"Villa del norte","location":{"lat":2.4742366,"lng":-76.555225}},
	{"name":"Bello Horizonte","location":{"lat":2.4897853,"lng":-76.5689585}},
	{"name":"Rio Vista","location":{"lat":2.4777308,"lng":-76.57641749999999}},
	{"name":"La Cruz Roja Popayan","location":{"lat":2.4827094,"lng":-76.57086319999999}},
	{"name":"El Bambú","location":{"lat":2.481468599999999,"lng":-76.5723703}},
	{"name":"Bella vista","location":{"lat":2.4827562,"lng":-76.5757073}},
	{"name":"San Ignacio","location":{"lat":2.4849339,"lng":-76.57216269999999}},
	{"name":"El Uvo","location":{"lat":2.4865723,"lng":-76.57708509999999}},
	{"name":"la arboleda","location":{"lat":2.4885695,"lng":-76.57634519999999}},
	{"name":"La Esperanza","location":{"lat":2.4631233,"lng":-76.5661116}},
	{"name":"Canterbury","location":{"lat":2.476953899999999,"lng":-76.5797667}},
	{"name":"Guayacanes","location":{"lat":2.4588396,"lng":-76.6395323}},
	{"name":"Villa Claudia","location":{"lat":2.5143888,"lng":-76.64510229999999}},
	{"name":"Matamoros","location":{"lat":2.4746286,"lng":-76.5570199}},
	{"name":"San Fernando Norte","location":{"lat":2.4729621,"lng":-76.5751576}},
	{"name":"Pinares","location":{"lat":2.4902733,"lng":-76.5854989}},
	{"name":"Los Ángeles","location":{"lat":2.482164199999999,"lng":-76.57451019999999}},
	{"name":"Bolivar","location":{"lat":2.4464901,"lng":-76.6042464}},
	{"name":"Ciudad Jardín","location":{"lat":2.4559546,"lng":-76.593277}},
	{"name":"Sotará","location":{"lat":2.4555564,"lng":-76.59030659999999}},
	{"name":"LOS HOYOS","location":{"lat":2.4595948,"lng":-76.5858489}},
	{"name":"Parque Yambitará","location":{"lat":2.458698699999999,"lng":-76.5868704}},
	{"name":"Villa Mercedes","location":{"lat":2.455697299999999,"lng":-76.6627187}},
	{"name":"Yanaconas","location":{"lat":2.4460926,"lng":-76.6393854}},
	{"name":"La Ximena","location":{"lat":2.4648831,"lng":-76.5801657}},
	{"name":"Palace","location":{"lat":2.461239,"lng":-76.5912428}},
	{"name":"Pueblillo","location":{"lat":2.4465489,"lng":-76.58231789999999}},
	{"name":"Jose Antonio Galán","location":{"lat":10.4535284,"lng":-73.28267559999999}},
	{"name":"Las Tres Margaritas","location":{"lat":2.4678246,"lng":-76.5801391}},
	{"name":"Torres del Rio","location":{"lat":2.4581291,"lng":-76.5930795}},
	{"name":"Galicia","location":{"lat":2.4610722,"lng":-76.5866714}},
	{"name":"Alto y Bajo (CAUCA)","location":{"lat":40.37036939999999,"lng":-3.7507284}},
	{"name":"La virginia","location":{"lat":2.4715285,"lng":-76.68698060000001}},
	{"name":"Provitec (HOYOS)","location":{"lat":2.4433014,"lng":-76.6111526}},
	{"name":"Rincon de la estancia","location":{"lat":2.4494707,"lng":-76.5935721}},
	{"name":"Madres solteras (YANAC)","location":{"lat":-2.2277722,"lng":-80.07539059999999}},
	{"name":"Aida Lucia","location":{"lat":2.4600626,"lng":-76.5804198}},
	{"name":"Altos del jardín","location":{"lat":2.4546891,"lng":-76.59538820000002}},
	{"name":"la Estancia","location":{"lat":2.4506822,"lng":-76.5974605}},
	{"name":"Moravia","location":{"lat":2.4574169,"lng":-76.5922341}},
	{"name":"Guayacanes ","location":{"lat":2.4613104,"lng":-76.5873369}},
	{"name":"ALICANTE I y II","location":{"lat":10.4643609,"lng":-66.9069532}},
	{"name":"Acacias","location":{"lat":2.4407558,"lng":-76.60977059999999}},
	{"name":"Rincon Del Rio","location":{"lat":2.4493563,"lng":-76.59354429999999}},
	{"name":"Provitec II ETAPA","location":{"lat":2.4433014,"lng":-76.6111526}},
	{"name":"Bosques de Pomona","location":{"lat":2.4499852,"lng":-76.5936085}},
	{"name":"Vásquez Cobo","location":{"lat":2.4448256,"lng":-76.6026323}},
	{"name":"El Prado","location":{"lat":2.444615799999999,"lng":-76.60604900000001}},
	{"name":"Siglo XX","location":{"lat":2.4423051,"lng":-76.609354}},
	{"name":"Centro","location":{"lat":2.4384121,"lng":-76.6051957}},
	{"name":"SAN RAFAEL VIEJO","location":{"lat":2.4723366,"lng":-76.6847274}},
	{"name":"El Refugio","location":{"lat":2.442613,"lng":-76.6012263}},
	{"name":"Liceo","location":{"lat":2.4497587,"lng":-76.591836}},
	{"name":"La Pamba","location":{"lat":2.443392,"lng":-76.60245880000001}},
	{"name":"Loma De Cartagena","location":{"lat":2.4394271,"lng":-76.6020297}},
	{"name":"FUCHA","location":{"lat":2.4357105,"lng":-76.60101259999999}},
	{"name":"El Empedrado","location":{"lat":2.4384121,"lng":-76.6051957}},
	{"name":"San Camilo","location":{"lat":2.4386424,"lng":-76.6120734}},
	{"name":"ARGENTINA","location":{"lat":2.4322571,"lng":-76.60444559999999}},
	{"name":"Colombia II ETAPA","location":{"lat":2.4404579,"lng":-76.606575}},
	{"name":"Valencia","location":{"lat":2.4423436,"lng":-76.6122256}},
	{"name":"Pomona","location":{"lat":2.4499852,"lng":-76.5936085}},
	{"name":"Parque Caldas","location":{"lat":2.4418674,"lng":-76.60627389999999}},
	{"name":"SANTA INÉS ","location":{"lat":2.4375134,"lng":-76.6023187}},
	{"name":"Molino De Moscopan","location":{"lat":2.4343974,"lng":-76.60204379999999}},
	{"name":"Las Américas","location":{"lat":2.4373886,"lng":-76.6161149}},
	{"name":"Cadillal","location":{"lat":0,"lng":0}}, 
	{"name":"Plateado","location":{"lat":2.423287999999999,"lng":-76.60727969999999}},
	{"name":"Alameda","location":{"lat":2.431383,"lng":-76.6063655}},
	{"name":"Colgate palmolive","location":{"lat":2.4364975,"lng":-76.6168533}},
	{"name":"los Andes","location":{"lat":2.450464,"lng":-76.59823039999999}},
	{"name":"La Floresta","location":{"lat":2.4436334,"lng":-76.6022418}},
	{"name":"Santa monica","location":{"lat":2.4310425,"lng":-76.6056158}},
	{"name":"Sauces","location":{"lat":2.4238936,"lng":-76.59933629999999}},
	{"name":"Barrio Maria Oriente","location":{"lat":2.4299589,"lng":-76.6003398}},
	{"name":"Barrio El Portal de las Ferias","location":{"lat":2.4324689,"lng":-76.6002917}},
	{"name":"Barrio el berlin","location":{"lat":2.431670099999999,"lng":-76.6017188}},
	{"name":"Barrio el lago","location":{"lat":2.43266,"lng":-76.5996184}},
	{"name":"LOS TEJARES","location":{"lat":2.4383002,"lng":-76.6233925}},
	{"name":"BARRIO SAN RAFAEL NUEVO","location":{"lat":2.4360452,"lng":-76.61579809999999}},
	{"name":"Nueva Granada","location":{"lat":2.4328515,"lng":-76.61657459999999}},
	{"name":"Villa Del Carmen II","location":{"lat":2.5271797,"lng":-76.5530686}},
	{"name":"La Colina","location":{"lat":2.4468059,"lng":-76.60818019999999}},
	{"name":"BARRIO NUEVO JAPON","location":{"lat":2.4292932,"lng":-76.6110858}},
	{"name":"Barrio La Gran Victoria","location":{"lat":2.4282987,"lng":-76.61057989999999}},
	{"name":"Barrio Versalles","location":{"lat":2.4358731,"lng":-76.62248610000002}},
	{"name":"salon comunal Barrio el Limonar","location":{"lat":2.4349971,"lng":-76.6132762}},
	{"name":"Barrio La paz","location":{"lat":2.479047899999999,"lng":-76.56060579999999}},
	{"name":"Gabriel Garcia Marquez","location":{"lat":2.4377838,"lng":-76.6099402}},
	{"name":"El Boqueron","location":{"lat":2.4395565,"lng":-76.6036836}},
	{"name":"Jorge Eliecer Gaitán","location":{"lat":2.4253379,"lng":-76.6152324}},
	{"name":"BARRIO SINDICAL I Y II ETAPA","location":{"lat":2.432043,"lng":-76.61198000000002}},
	{"name":"BARRIO ALFONSO LÓPEZ","location":{"lat":2.4331859,"lng":-76.6082524}},
	{"name":"Manuela Beltrán","location":{"lat":2.4409247,"lng":-76.62340110000001}},
	{"name":"BARRIO PRIMERO DE MAYO","location":{"lat":2.433359,"lng":-76.6108179}},
	{"name":"Barrio Los Comuneros","location":{"lat":2.4297207,"lng":-76.6105252}},
	{"name":"Loma de La Virgen","location":{"lat":2.4282884,"lng":-76.6146397}},
	{"name":"José Hilario López","location":{"lat":2.4444755,"lng":-76.60669759999999}},
	{"name":"Los naranjos (SUR) ","location":{"lat":2.4591942,"lng":-76.6357836}},
	{"name":"Santa fe De Bogota","location":{"lat":2.4465951,"lng":-76.6038351}},
	{"name":"Barrio la ladera","location":{"lat":2.4349064,"lng":-76.6180355}},
	{"name":"Las  I y II","location":{"lat":2.4518314,"lng":-76.6334823}},
	{"name":"La Isabela","location":{"lat":2.527175,"lng":-76.603021}},
	{"name":"MADRES SOLTERAS","location":{"lat":2.4434387,"lng":-76.6100816}},
	{"name":"Los Campos","location":{"lat":2.4492324,"lng":-76.6333046}},
	{"name":"31 de Marzo","location":{"lat":2.4435374,"lng":-76.6151871}},
	{"name":"El Mirador","location":{"lat":2.445010799999999,"lng":-76.6285547}},
	{"name":"Barrio solidaridad","location":{"lat":2.4424506,"lng":-76.6271441}},
	{"name":"Barrio Chapinero","location":{"lat":2.4399447,"lng":-76.62784359999999}},
	{"name":"Retiro Alto","location":{"lat":2.4403811,"lng":-76.6228584}},
	{"name":"Barrio libertad","location":{"lat":2.4444486,"lng":-76.6311084}},
	{"name":"La Conquista","location":{"lat":2.4443905,"lng":-76.6268844}},
	{"name":"Las Brisas","location":{"lat":2.445870499999999,"lng":-76.63158949999999}},
	{"name":"barrio SANTA LIBRADA","location":{"lat":2.445586,"lng":-76.62850499999999}},
	{"name":"Villa Del Carmen","location":{"lat":2.5271797,"lng":-76.5530686}},
	{"name":"Camilo Torres","location":{"lat":2.450214099999999,"lng":-76.6211474}},
	{"name":"Santa Helena","location":{"lat":2.4452758,"lng":-76.6246354}},
	{"name":"Popular (ZAGUAN)","location":{"lat":2.442085,"lng":-76.60538199999999}},
	{"name":"BARRIO LLANO LARGO","location":{"lat":2.4453537,"lng":-76.61875859999999}},
	{"name":"Jose Maria Obando","location":{"lat":2.4452574,"lng":-76.6215513}},
	{"name":"Barrio Minuto De Dios (ESMERALDA) ","location":{"lat":4.8650386,"lng":-74.90882289999999}},
	{"name":"Guayabal","location":{"lat":2.4427765,"lng":-76.61952509999999}},
	{"name":"Barrio la Esmeralda","location":{"lat":2.4440397,"lng":-76.61607479999999}},
	{"name":"Barrio Pandiguando","location":{"lat":2.4468627,"lng":-76.6169711}},
	{"name":"La Isla I y II","location":{"lat":2.4534384,"lng":-76.6226473}},
	{"name":"El Triunfo","location":{"lat":2.4252952,"lng":-76.60786379999999}},
	{"name":"Perpetuo Socorro","location":{"lat":2.4469797,"lng":-76.62057879999999}},
	{"name":"Barrio Lomas de Granada","location":{"lat":2.4587562,"lng":-76.64492489999999}},
	{"name":"Barrio La Capitana","location":{"lat":2.4602673,"lng":-76.6338829}},
	{"name":"Barrio san jose popayan","location":{"lat":2.4473063,"lng":-76.629864}},
	{"name":"Barrio La Sombrilla","location":{"lat":2.4505773,"lng":-76.6261924}},
	{"name":"Barrio Carlos primero","location":{"lat":2.453061399999999,"lng":-76.6295562}},
	{"name":"Hospital Maria Occidente","location":{"lat":2.456830399999999,"lng":-76.63254739999999}}
]